{"generatedAt":"2026-06-22T03:14:55Z","seed":true,"source":"OpenFlights airports.dat (github.com/jpatokal/openflights)","note":"Authoritative airport reference, filtered to the Glidepath set. Refreshed nightly by fetch-openflights.mjs. seed:true until first live Action run. Browser reads this file same-origin.","count":21,"airports":{"YTZ":{"icao":"CYTZ","name":"Billy Bishop Toronto City","city":"Toronto","country":"Canada","cc":"CAN","lat":43.6275,"lon":-79.3962,"elev_ft":252,"tz":"America/Toronto","region":"North America","source":"openflights"},"YOW":{"icao":"CYOW","name":"Ottawa Macdonald–Cartier Intl","city":"Ottawa","country":"Canada","cc":"CAN","lat":45.3225,"lon":-75.6692,"elev_ft":374,"tz":"America/Toronto","region":"North America","source":"openflights"},"YHM":{"icao":"CYHM","name":"John C. Munro Hamilton Intl","city":"Hamilton","country":"Canada","cc":"CAN","lat":43.1736,"lon":-79.935,"elev_ft":780,"tz":"America/Toronto","region":"North America","source":"openflights"},"YQB":{"icao":"CYQB","name":"Québec City Jean Lesage Intl","city":"Québec","country":"Canada","cc":"CAN","lat":46.7911,"lon":-71.3933,"elev_ft":244,"tz":"America/Toronto","region":"North America","source":"openflights"},"YHZ":{"icao":"CYHZ","name":"Halifax Stanfield Intl","city":"Halifax","country":"Canada","cc":"CAN","lat":44.8808,"lon":-63.5086,"elev_ft":477,"tz":"America/Halifax","region":"North America","source":"openflights"},"YKF":{"icao":"CYKF","name":"Region of Waterloo Intl","city":"Kitchener","country":"Canada","cc":"CAN","lat":43.4608,"lon":-80.3786,"elev_ft":1055,"tz":"America/Toronto","region":"North America","source":"openflights"},"BUR":{"icao":"KBUR","name":"Hollywood Burbank","city":"Burbank","country":"United States","cc":"USA","lat":34.2007,"lon":-118.359,"elev_ft":778,"tz":"America/Los_Angeles","region":"North America","source":"openflights"},"PVU":{"icao":"KPVU","name":"Provo Municipal","city":"Provo","country":"United States","cc":"USA","lat":40.2192,"lon":-111.7233,"elev_ft":4497,"tz":"America/Denver","region":"North America","source":"openflights"},"PSP":{"icao":"KPSP","name":"Palm Springs Intl","city":"Palm Springs","country":"United States","cc":"USA","lat":33.8297,"lon":-116.5067,"elev_ft":477,"tz":"America/Los_Angeles","region":"North America","source":"openflights"},"BZN":{"icao":"KBZN","name":"Bozeman Yellowstone Intl","city":"Bozeman","country":"United States","cc":"USA","lat":45.7775,"lon":-111.1531,"elev_ft":4473,"tz":"America/Denver","region":"North America","source":"openflights"},"EXT":{"icao":"EGTE","name":"Exeter","city":"Exeter","country":"United Kingdom","cc":"GBR","lat":50.7344,"lon":-3.4139,"elev_ft":102,"tz":"Europe/London","region":"Europe","source":"openflights"},"NQY":{"icao":"EGHQ","name":"Cornwall Newquay","city":"Newquay","country":"United Kingdom","cc":"GBR","lat":50.4406,"lon":-4.9954,"elev_ft":390,"tz":"Europe/London","region":"Europe","source":"openflights"},"INV":{"icao":"EGPE","name":"Inverness","city":"Inverness","country":"United Kingdom","cc":"GBR","lat":57.5425,"lon":-4.0475,"elev_ft":31,"tz":"Europe/London","region":"Europe","source":"openflights"},"RTM":{"icao":"EHRD","name":"Rotterdam The Hague","city":"Rotterdam","country":"Netherlands","cc":"NLD","lat":51.9569,"lon":4.4372,"elev_ft":-15,"tz":"Europe/Amsterdam","region":"Europe","source":"openflights"},"FMM":{"icao":"EDJA","name":"Memmingen","city":"Memmingen","country":"Germany","cc":"DEU","lat":47.9888,"lon":10.2395,"elev_ft":2077,"tz":"Europe/Berlin","region":"Europe","source":"openflights"},"AAR":{"icao":"EKAH","name":"Aarhus","city":"Aarhus","country":"Denmark","cc":"DNK","lat":56.3,"lon":10.619,"elev_ft":82,"tz":"Europe/Copenhagen","region":"Europe","source":"openflights"},"GRZ":{"icao":"LOWG","name":"Graz","city":"Graz","country":"Austria","cc":"AUT","lat":46.9911,"lon":15.4396,"elev_ft":1115,"tz":"Europe/Vienna","region":"Europe","source":"openflights"},"KLU":{"icao":"LOWK","name":"Klagenfurt","city":"Klagenfurt","country":"Austria","cc":"AUT","lat":46.6425,"lon":14.3377,"elev_ft":1470,"tz":"Europe/Vienna","region":"Europe","source":"openflights"},"SZG":{"icao":"LOWS","name":"Salzburg W.A. Mozart","city":"Salzburg","country":"Austria","cc":"AUT","lat":47.7933,"lon":13.0043,"elev_ft":1411,"tz":"Europe/Vienna","region":"Europe","source":"openflights"},"NAP":{"icao":"LIRN","name":"Naples Intl","city":"Naples","country":"Italy","cc":"ITA","lat":40.886,"lon":14.2908,"elev_ft":294,"tz":"Europe/Rome","region":"Europe","source":"openflights"},"WRO":{"icao":"EPWR","name":"Wrocław Copernicus","city":"Wrocław","country":"Poland","cc":"POL","lat":51.1027,"lon":16.8858,"elev_ft":404,"tz":"Europe/Warsaw","region":"Europe","source":"openflights"}}}
