{"generatedAt":"2026-06-25T18:36:59.621Z","seed":false,"source":"OpenFlights airports.dat (github.com/jpatokal/openflights)","note":"Airport reference trimmed to the airports that carry data (full set is rebuilt nightly by fetch-openflights.mjs).","count":8,"airports":{"YYZ":{"icao":"CYYZ","name":"Lester B. Pearson International Airport","city":"Toronto","country":"Canada","lat":43.6772003174,"lon":-79.63059997559999,"elev_ft":569,"tz":"America/Toronto","source":"openflights"},"YVR":{"icao":"CYVR","name":"Vancouver International Airport","city":"Vancouver","country":"Canada","lat":49.193901062,"lon":-123.183998108,"elev_ft":14,"tz":"America/Vancouver","source":"openflights"},"YUL":{"icao":"CYUL","name":"Montreal / Pierre Elliott Trudeau International Airport","city":"Montreal","country":"Canada","lat":45.4706001282,"lon":-73.7407989502,"elev_ft":118,"tz":"America/Toronto","source":"openflights"},"YYC":{"icao":"CYYC","name":"Calgary International Airport","city":"Calgary","country":"Canada","lat":51.113899231,"lon":-114.019996643,"elev_ft":3557,"tz":"America/Edmonton","source":"openflights"},"YEG":{"icao":"CYEG","name":"Edmonton International Airport","city":"Edmonton","country":"Canada","lat":53.309700012200004,"lon":-113.580001831,"elev_ft":2373,"tz":"America/Edmonton","source":"openflights"},"YOW":{"icao":"CYOW","name":"Ottawa Macdonald-Cartier International Airport","city":"Ottawa","country":"Canada","lat":45.3224983215332,"lon":-75.66919708251953,"elev_ft":374,"tz":"America/Toronto","source":"openflights"},"YWG":{"icao":"CYWG","name":"Winnipeg / James Armstrong Richardson International Airport","city":"Winnipeg","country":"Canada","lat":49.909999847399995,"lon":-97.2398986816,"elev_ft":783,"tz":"America/Winnipeg","source":"openflights"},"YHZ":{"icao":"CYHZ","name":"Halifax / Stanfield International Airport","city":"Halifax","country":"Canada","lat":44.8807983398,"lon":-63.5085983276,"elev_ft":477,"tz":"America/Halifax","source":"openflights"}}}
