{"generatedAt":"2026-07-11T00:24:22.730Z","seed":false,"source":"OpenFlights airports.dat (github.com/jpatokal/openflights)","note":"Airport reference trimmed to the airports that carry data (full set is rebuilt nightly by fetch-openflights.mjs).","count":113,"airports":{"ATL":{"icao":"KATL","name":"Hartsfield Jackson Atlanta International Airport","city":"Atlanta","country":"United States","lat":33.6367,"lon":-84.428101,"elev_ft":1026,"tz":"America/New_York","source":"openflights"},"DFW":{"icao":"KDFW","name":"Dallas Fort Worth International Airport","city":"Dallas-Fort Worth","country":"United States","lat":32.896801,"lon":-97.038002,"elev_ft":607,"tz":"America/Chicago","source":"openflights"},"DEN":{"icao":"KDEN","name":"Denver International Airport","city":"Denver","country":"United States","lat":39.861698150635,"lon":-104.672996521,"elev_ft":5431,"tz":"America/Denver","source":"openflights"},"ORD":{"icao":"KORD","name":"Chicago O'Hare International Airport","city":"Chicago","country":"United States","lat":41.9786,"lon":-87.9048,"elev_ft":672,"tz":"America/Chicago","source":"openflights"},"LAX":{"icao":"KLAX","name":"Los Angeles International Airport","city":"Los Angeles","country":"United States","lat":33.94250107,"lon":-118.4079971,"elev_ft":125,"tz":"America/Los_Angeles","source":"openflights"},"CLT":{"icao":"KCLT","name":"Charlotte Douglas International Airport","city":"Charlotte","country":"United States","lat":35.2140007019043,"lon":-80.94309997558594,"elev_ft":748,"tz":"America/New_York","source":"openflights"},"LAS":{"icao":"KLAS","name":"McCarran International Airport","city":"Las Vegas","country":"United States","lat":36.08010101,"lon":-115.1520004,"elev_ft":2181,"tz":"America/Los_Angeles","source":"openflights"},"PHX":{"icao":"KPHX","name":"Phoenix Sky Harbor International Airport","city":"Phoenix","country":"United States","lat":33.43429946899414,"lon":-112.01200103759766,"elev_ft":1135,"tz":"America/Phoenix","source":"openflights"},"MCO":{"icao":"KMCO","name":"Orlando International Airport","city":"Orlando","country":"United States","lat":28.429399490356445,"lon":-81.30899810791016,"elev_ft":96,"tz":"America/New_York","source":"openflights"},"SEA":{"icao":"KSEA","name":"Seattle Tacoma International Airport","city":"Seattle","country":"United States","lat":47.449001,"lon":-122.308998,"elev_ft":433,"tz":"America/Los_Angeles","source":"openflights"},"MIA":{"icao":"KMIA","name":"Miami International Airport","city":"Miami","country":"United States","lat":25.79319953918457,"lon":-80.29060363769531,"elev_ft":8,"tz":"America/New_York","source":"openflights"},"IAH":{"icao":"KIAH","name":"George Bush Intercontinental Houston Airport","city":"Houston","country":"United States","lat":29.984399795532227,"lon":-95.34140014648438,"elev_ft":97,"tz":"America/Chicago","source":"openflights"},"JFK":{"icao":"KJFK","name":"John F Kennedy International Airport","city":"New York","country":"United States","lat":40.63980103,"lon":-73.77890015,"elev_ft":13,"tz":"America/New_York","source":"openflights"},"EWR":{"icao":"KEWR","name":"Newark Liberty International Airport","city":"Newark","country":"United States","lat":40.692501068115234,"lon":-74.168701171875,"elev_ft":18,"tz":"America/New_York","source":"openflights"},"FLL":{"icao":"KFLL","name":"Fort Lauderdale Hollywood International Airport","city":"Fort Lauderdale","country":"United States","lat":26.072599,"lon":-80.152702,"elev_ft":9,"tz":"America/New_York","source":"openflights"},"MSP":{"icao":"KMSP","name":"Minneapolis-St Paul International/Wold-Chamberlain Airport","city":"Minneapolis","country":"United States","lat":44.882,"lon":-93.221802,"elev_ft":841,"tz":"America/Chicago","source":"openflights"},"SFO":{"icao":"KSFO","name":"San Francisco International Airport","city":"San Francisco","country":"United States","lat":37.61899948120117,"lon":-122.375,"elev_ft":13,"tz":"America/Los_Angeles","source":"openflights"},"DTW":{"icao":"KDTW","name":"Detroit Metropolitan Wayne County Airport","city":"Detroit","country":"United States","lat":42.212398529052734,"lon":-83.35340118408203,"elev_ft":645,"tz":"America/New_York","source":"openflights"},"BOS":{"icao":"KBOS","name":"General Edward Lawrence Logan International Airport","city":"Boston","country":"United States","lat":42.36429977,"lon":-71.00520325,"elev_ft":20,"tz":"America/New_York","source":"openflights"},"PHL":{"icao":"KPHL","name":"Philadelphia International Airport","city":"Philadelphia","country":"United States","lat":39.87189865112305,"lon":-75.24109649658203,"elev_ft":36,"tz":"America/New_York","source":"openflights"},"LGA":{"icao":"KLGA","name":"La Guardia Airport","city":"New York","country":"United States","lat":40.77719879,"lon":-73.87259674,"elev_ft":21,"tz":"America/New_York","source":"openflights"},"IAD":{"icao":"KIAD","name":"Washington Dulles International Airport","city":"Washington","country":"United States","lat":38.94449997,"lon":-77.45580292,"elev_ft":312,"tz":"America/New_York","source":"openflights"},"BWI":{"icao":"KBWI","name":"Baltimore/Washington International Thurgood Marshall Airport","city":"Baltimore","country":"United States","lat":39.1754,"lon":-76.668297,"elev_ft":146,"tz":"America/New_York","source":"openflights"},"TPA":{"icao":"KTPA","name":"Tampa International Airport","city":"Tampa","country":"United States","lat":27.975500106811523,"lon":-82.533203125,"elev_ft":26,"tz":"America/New_York","source":"openflights"},"SAN":{"icao":"KSAN","name":"San Diego International Airport","city":"San Diego","country":"United States","lat":32.7336006165,"lon":-117.190002441,"elev_ft":17,"tz":"America/Los_Angeles","source":"openflights"},"AUS":{"icao":"KAUS","name":"Austin Bergstrom International Airport","city":"Austin","country":"United States","lat":30.194499969482422,"lon":-97.6698989868164,"elev_ft":542,"tz":"America/Chicago","source":"openflights"},"BNA":{"icao":"KBNA","name":"Nashville International Airport","city":"Nashville","country":"United States","lat":36.1245002746582,"lon":-86.6781997680664,"elev_ft":599,"tz":"America/Chicago","source":"openflights"},"MDW":{"icao":"KMDW","name":"Chicago Midway International Airport","city":"Chicago","country":"United States","lat":41.785999,"lon":-87.752403,"elev_ft":620,"tz":"America/Chicago","source":"openflights"},"HNL":{"icao":"PHNL","name":"Daniel K Inouye International Airport","city":"Honolulu","country":"United States","lat":21.32062,"lon":-157.924228,"elev_ft":13,"tz":"Pacific/Honolulu","source":"openflights"},"DAL":{"icao":"KDAL","name":"Dallas Love Field","city":"Dallas","country":"United States","lat":32.847099,"lon":-96.851799,"elev_ft":487,"tz":"America/Chicago","source":"openflights"},"PDX":{"icao":"KPDX","name":"Portland International Airport","city":"Portland","country":"United States","lat":45.58869934,"lon":-122.5979996,"elev_ft":31,"tz":"America/Los_Angeles","source":"openflights"},"STL":{"icao":"KSTL","name":"St Louis Lambert International Airport","city":"St. Louis","country":"United States","lat":38.748697,"lon":-90.370003,"elev_ft":618,"tz":"America/Chicago","source":"openflights"},"SLC":{"icao":"KSLC","name":"Salt Lake City International Airport","city":"Salt Lake City","country":"United States","lat":40.78839874267578,"lon":-111.97799682617188,"elev_ft":4227,"tz":"America/Denver","source":"openflights"},"DCA":{"icao":"KDCA","name":"Ronald Reagan Washington National Airport","city":"Washington","country":"United States","lat":38.8521,"lon":-77.037697,"elev_ft":15,"tz":"America/New_York","source":"openflights"},"MSY":{"icao":"KMSY","name":"Louis Armstrong New Orleans International Airport","city":"New Orleans","country":"United States","lat":29.99340057373047,"lon":-90.25800323486328,"elev_ft":4,"tz":"America/Chicago","source":"openflights"},"MAD":{"icao":"LEMD","name":"Adolfo Suárez Madrid–Barajas Airport","city":"Madrid","country":"Spain","lat":40.471926,"lon":-3.56264,"elev_ft":1998,"tz":"Europe/Madrid","source":"openflights"},"BCN":{"icao":"LEBL","name":"Barcelona International Airport","city":"Barcelona","country":"Spain","lat":41.2971,"lon":2.07846,"elev_ft":12,"tz":"Europe/Madrid","source":"openflights"},"AMS":{"icao":"EHAM","name":"Amsterdam Airport Schiphol","city":"Amsterdam","country":"Netherlands","lat":52.308601,"lon":4.76389,"elev_ft":-11,"tz":"Europe/Amsterdam","source":"openflights"},"FRA":{"icao":"EDDF","name":"Frankfurt am Main Airport","city":"Frankfurt","country":"Germany","lat":50.033333,"lon":8.570556,"elev_ft":364,"tz":"Europe/Berlin","source":"openflights"},"FCO":{"icao":"LIRF","name":"Leonardo da Vinci–Fiumicino Airport","city":"Rome","country":"Italy","lat":41.8002778,"lon":12.2388889,"elev_ft":13,"tz":"Europe/Rome","source":"openflights"},"VIE":{"icao":"LOWW","name":"Vienna International Airport","city":"Vienna","country":"Austria","lat":48.110298156738,"lon":16.569700241089,"elev_ft":600,"tz":"Europe/Vienna","source":"openflights"},"CPH":{"icao":"EKCH","name":"Copenhagen Kastrup Airport","city":"Copenhagen","country":"Denmark","lat":55.617900848389,"lon":12.656000137329,"elev_ft":17,"tz":"Europe/Copenhagen","source":"openflights"},"MUC":{"icao":"EDDM","name":"Munich Airport","city":"Munich","country":"Germany","lat":48.353802,"lon":11.7861,"elev_ft":1487,"tz":"Europe/Berlin","source":"openflights"},"MXP":{"icao":"LIMC","name":"Malpensa International Airport","city":"Milano","country":"Italy","lat":45.6306,"lon":8.72811,"elev_ft":768,"tz":"Europe/Rome","source":"openflights"},"AGP":{"icao":"LEMG","name":"Málaga Airport","city":"Malaga","country":"Spain","lat":36.67490005493164,"lon":-4.499110221862793,"elev_ft":53,"tz":"Europe/Madrid","source":"openflights"},"HEL":{"icao":"EFHK","name":"Helsinki Vantaa Airport","city":"Helsinki","country":"Finland","lat":60.317199707031,"lon":24.963300704956,"elev_ft":179,"tz":"Europe/Helsinki","source":"openflights"},"BUD":{"icao":"LHBP","name":"Budapest Liszt Ferenc International Airport","city":"Budapest","country":"Hungary","lat":47.42976,"lon":19.261093,"elev_ft":495,"tz":"Europe/Budapest","source":"openflights"},"LPA":{"icao":"GCLP","name":"Gran Canaria Airport","city":"Gran Canaria","country":"Spain","lat":27.931900024414062,"lon":-15.38659954071045,"elev_ft":78,"tz":"Atlantic/Canary","source":"openflights"},"WAW":{"icao":"EPWA","name":"Warsaw Chopin Airport","city":"Warsaw","country":"Poland","lat":52.1656990051,"lon":20.967100143399996,"elev_ft":362,"tz":"Europe/Warsaw","source":"openflights"},"ALC":{"icao":"LEAL","name":"Alicante International Airport","city":"Alicante","country":"Spain","lat":38.28219985961914,"lon":-0.5581560134887695,"elev_ft":142,"tz":"Europe/Madrid","source":"openflights"},"TFS":{"icao":"GCTS","name":"Tenerife South Airport","city":"Tenerife","country":"Spain","lat":28.044500351,"lon":-16.5725002289,"elev_ft":209,"tz":"Atlantic/Canary","source":"openflights"},"PRG":{"icao":"LKPR","name":"Václav Havel Airport Prague","city":"Prague","country":"Czech Republic","lat":50.1008,"lon":14.26,"elev_ft":1247,"tz":"Europe/Prague","source":"openflights"},"PMI":{"icao":"LEPA","name":"Palma De Mallorca Airport","city":"Palma de Mallorca","country":"Spain","lat":39.551700592,"lon":2.73881006241,"elev_ft":27,"tz":"Europe/Madrid","source":"openflights"},"SXF":{"icao":"EDDB","name":"Berlin-Schönefeld Airport","city":"Berlin","country":"Germany","lat":52.380001,"lon":13.5225,"elev_ft":157,"tz":"Europe/Berlin","source":"openflights"},"CDG":{"icao":"LFPG","name":"Charles de Gaulle International Airport","city":"Paris","country":"France","lat":49.012798,"lon":2.55,"elev_ft":392,"tz":"Europe/Paris","source":"openflights"},"LIS":{"icao":"LPPT","name":"Humberto Delgado Airport (Lisbon Portela Airport)","city":"Lisbon","country":"Portugal","lat":38.7813,"lon":-9.13592,"elev_ft":374,"tz":"Europe/Lisbon","source":"openflights"},"DUB":{"icao":"EIDW","name":"Dublin Airport","city":"Dublin","country":"Ireland","lat":53.421299,"lon":-6.27007,"elev_ft":242,"tz":"Europe/Dublin","source":"openflights"},"ARN":{"icao":"ESSA","name":"Stockholm-Arlanda Airport","city":"Stockholm","country":"Sweden","lat":59.651901245117,"lon":17.918600082397,"elev_ft":137,"tz":"Europe/Stockholm","source":"openflights"},"ZRH":{"icao":"LSZH","name":"Zürich Airport","city":"Zurich","country":"Switzerland","lat":47.464699,"lon":8.54917,"elev_ft":1416,"tz":"Europe/Zurich","source":"openflights"},"BGY":{"icao":"LIME","name":"Il Caravaggio International Airport","city":"Bergamo","country":"Italy","lat":45.673901,"lon":9.70417,"elev_ft":782,"tz":"Europe/Rome","source":"openflights"},"ATH":{"icao":"LGAV","name":"Eleftherios Venizelos International Airport","city":"Athens","country":"Greece","lat":37.9364013672,"lon":23.9444999695,"elev_ft":308,"tz":"Europe/Athens","source":"openflights"},"VLC":{"icao":"LEVC","name":"Valencia Airport","city":"Valencia","country":"Spain","lat":39.4893,"lon":-0.481625,"elev_ft":240,"tz":"Europe/Madrid","source":"openflights"},"KRK":{"icao":"EPKK","name":"Kraków John Paul II International Airport","city":"Krakow","country":"Poland","lat":50.077702,"lon":19.7848,"elev_ft":791,"tz":"Europe/Warsaw","source":"openflights"},"SVQ":{"icao":"LEZL","name":"Sevilla Airport","city":"Sevilla","country":"Spain","lat":37.417999267578125,"lon":-5.8931097984313965,"elev_ft":112,"tz":"Europe/Madrid","source":"openflights"},"DUS":{"icao":"EDDL","name":"Düsseldorf Airport","city":"Duesseldorf","country":"Germany","lat":51.289501,"lon":6.76678,"elev_ft":147,"tz":"Europe/Berlin","source":"openflights"},"OSL":{"icao":"ENGM","name":"Oslo Lufthavn","city":"Oslo","country":"Norway","lat":60.121,"lon":11.0502,"elev_ft":681,"tz":"Europe/Oslo","source":"openflights"},"ACE":{"icao":"GCRR","name":"Lanzarote Airport","city":"Arrecife","country":"Spain","lat":28.945499,"lon":-13.6052,"elev_ft":46,"tz":"Atlantic/Canary","source":"openflights"},"KEF":{"icao":"BIKF","name":"Keflavik International Airport","city":"Keflavik","country":"Iceland","lat":63.985000610352,"lon":-22.605600357056,"elev_ft":171,"tz":"Atlantic/Reykjavik","source":"openflights"},"LIN":{"icao":"LIML","name":"Milano Linate Airport","city":"Milan","country":"Italy","lat":45.445099,"lon":9.27674,"elev_ft":353,"tz":"Europe/Rome","source":"openflights"},"SOF":{"icao":"LBSF","name":"Sofia Airport","city":"Sofia","country":"Bulgaria","lat":42.696693420410156,"lon":23.411436080932617,"elev_ft":1742,"tz":"Europe/Sofia","source":"openflights"},"LCA":{"icao":"LCLK","name":"Larnaca International Airport","city":"Larnaca","country":"Cyprus","lat":34.875099182128906,"lon":33.624900817871094,"elev_ft":8,"tz":"Asia/Nicosia","source":"openflights"},"VCE":{"icao":"LIPZ","name":"Venice Marco Polo Airport","city":"Venice","country":"Italy","lat":45.505299,"lon":12.3519,"elev_ft":7,"tz":"Europe/Rome","source":"openflights"},"NAP":{"icao":"LIRN","name":"Naples International Airport","city":"Naples","country":"Italy","lat":40.886002,"lon":14.2908,"elev_ft":294,"tz":"Europe/Rome","source":"openflights"},"CTA":{"icao":"LICC","name":"Catania-Fontanarossa Airport","city":"Catania","country":"Italy","lat":37.466801,"lon":15.0664,"elev_ft":39,"tz":"Europe/Rome","source":"openflights"},"HAM":{"icao":"EDDH","name":"Hamburg Airport","city":"Hamburg","country":"Germany","lat":53.630401611328,"lon":9.9882297515869,"elev_ft":53,"tz":"Europe/Berlin","source":"openflights"},"BLQ":{"icao":"LIPE","name":"Bologna Guglielmo Marconi Airport","city":"Bologna","country":"Italy","lat":44.5354,"lon":11.2887,"elev_ft":123,"tz":"Europe/Rome","source":"openflights"},"FUE":{"icao":"GCFV","name":"Fuerteventura Airport","city":"Fuerteventura","country":"Spain","lat":28.452699661254883,"lon":-13.863800048828125,"elev_ft":85,"tz":"Atlantic/Canary","source":"openflights"},"TFN":{"icao":"GCXO","name":"Tenerife Norte Airport","city":"Tenerife","country":"Spain","lat":28.4827003479,"lon":-16.3414993286,"elev_ft":2076,"tz":"Atlantic/Canary","source":"openflights"},"GVA":{"icao":"LSGG","name":"Geneva Cointrin International Airport","city":"Geneva","country":"Switzerland","lat":46.23809814453125,"lon":6.108950138092041,"elev_ft":1411,"tz":"Europe/Paris","source":"openflights"},"OTP":{"icao":"LROP","name":"Henri Coandă International Airport","city":"Bucharest","country":"Romania","lat":44.5711111,"lon":26.085,"elev_ft":314,"tz":"Europe/Bucharest","source":"openflights"},"RIX":{"icao":"EVRA","name":"Riga International Airport","city":"Riga","country":"Latvia","lat":56.92359924316406,"lon":23.971099853515625,"elev_ft":36,"tz":"Europe/Riga","source":"openflights"},"BIO":{"icao":"LEBB","name":"Bilbao Airport","city":"Bilbao","country":"Spain","lat":43.30110168457031,"lon":-2.9106099605560303,"elev_ft":138,"tz":"Europe/Madrid","source":"openflights"},"ORY":{"icao":"LFPO","name":"Paris-Orly Airport","city":"Paris","country":"France","lat":48.7233333,"lon":2.3794444,"elev_ft":291,"tz":"Europe/Paris","source":"openflights"},"OPO":{"icao":"LPPR","name":"Francisco de Sá Carneiro Airport","city":"Porto","country":"Portugal","lat":41.2481002808,"lon":-8.68138980865,"elev_ft":228,"tz":"Europe/Lisbon","source":"openflights"},"LUX":{"icao":"ELLX","name":"Luxembourg-Findel International Airport","city":"Luxemburg","country":"Luxembourg","lat":49.6233333,"lon":6.2044444,"elev_ft":1234,"tz":"Europe/Luxembourg","source":"openflights"},"VNO":{"icao":"EYVI","name":"Vilnius International Airport","city":"Vilnius","country":"Lithuania","lat":54.634102,"lon":25.285801,"elev_ft":648,"tz":"Europe/Vilnius","source":"openflights"},"PMO":{"icao":"LICJ","name":"Falcone–Borsellino Airport","city":"Palermo","country":"Italy","lat":38.175999,"lon":13.091,"elev_ft":65,"tz":"Europe/Rome","source":"openflights"},"BRI":{"icao":"LIBD","name":"Bari Karol Wojtyła Airport","city":"Bari","country":"Italy","lat":41.138901,"lon":16.760599,"elev_ft":177,"tz":"Europe/Rome","source":"openflights"},"GDN":{"icao":"EPGD","name":"Gdańsk Lech Wałęsa Airport","city":"Gdansk","country":"Poland","lat":54.377601623535156,"lon":18.46619987487793,"elev_ft":489,"tz":"Europe/Warsaw","source":"openflights"},"ZAG":{"icao":"LDZA","name":"Zagreb Airport","city":"Zagreb","country":"Croatia","lat":45.7429008484,"lon":16.0687999725,"elev_ft":353,"tz":"Europe/Zagreb","source":"openflights"},"EIN":{"icao":"EHEH","name":"Eindhoven Airport","city":"Eindhoven","country":"Netherlands","lat":51.4500999451,"lon":5.37452983856,"elev_ft":74,"tz":"Europe/Amsterdam","source":"openflights"},"TRN":{"icao":"LIMF","name":"Turin Airport","city":"Torino","country":"Italy","lat":45.200802,"lon":7.64963,"elev_ft":989,"tz":"Europe/Rome","source":"openflights"},"CGN":{"icao":"EDDK","name":"Cologne Bonn Airport","city":"Cologne","country":"Germany","lat":50.8658981323,"lon":7.1427397728,"elev_ft":302,"tz":"Europe/Berlin","source":"openflights"},"STR":{"icao":"EDDS","name":"Stuttgart Airport","city":"Stuttgart","country":"Germany","lat":48.689899444599995,"lon":9.22196006775,"elev_ft":1276,"tz":"Europe/Berlin","source":"openflights"},"BRU":{"icao":"EBBR","name":"Brussels Airport","city":"Brussels","country":"Belgium","lat":50.901401519800004,"lon":4.48443984985,"elev_ft":184,"tz":"Europe/Brussels","source":"openflights"},"KTW":{"icao":"EPKT","name":"Katowice International Airport","city":"Katowice","country":"Poland","lat":50.4743,"lon":19.08,"elev_ft":995,"tz":"Europe/Warsaw","source":"openflights"},"BTS":{"icao":"LZIB","name":"M. R. Štefánik Airport","city":"Bratislava","country":"Slovakia","lat":48.17020034790039,"lon":17.21269989013672,"elev_ft":436,"tz":"Europe/Bratislava","source":"openflights"},"PSA":{"icao":"LIRP","name":"Pisa International Airport","city":"Pisa","country":"Italy","lat":43.683899,"lon":10.3927,"elev_ft":6,"tz":"Europe/Rome","source":"openflights"},"BEG":{"icao":"LYBE","name":"Belgrade Nikola Tesla Airport","city":"Belgrade","country":"Serbia","lat":44.8184013367,"lon":20.3090991974,"elev_ft":335,"tz":"Europe/Belgrade","source":"openflights"},"PFO":{"icao":"LCPH","name":"Paphos International Airport","city":"Paphos","country":"Cyprus","lat":34.71799850463867,"lon":32.48569869995117,"elev_ft":41,"tz":"Asia/Nicosia","source":"openflights"},"BSL":{"icao":"LFSB","name":"EuroAirport Basel-Mulhouse-Freiburg Airport","city":"Mulhouse","country":"France","lat":47.59,"lon":7.5291667,"elev_ft":885,"tz":"Europe/Paris","source":"openflights"},"CIA":{"icao":"LIRA","name":"Ciampino–G. B. Pastine International Airport","city":"Rome","country":"Italy","lat":41.7994,"lon":12.5949,"elev_ft":427,"tz":"Europe/Rome","source":"openflights"},"IBZ":{"icao":"LEIB","name":"Ibiza Airport","city":"Ibiza","country":"Spain","lat":38.872898101800004,"lon":1.3731199502899998,"elev_ft":24,"tz":"Europe/Madrid","source":"openflights"},"CAG":{"icao":"LIEE","name":"Cagliari Elmas Airport","city":"Cagliari","country":"Italy","lat":39.251499,"lon":9.05428,"elev_ft":13,"tz":"Europe/Rome","source":"openflights"},"GOT":{"icao":"ESGG","name":"Gothenburg-Landvetter Airport","city":"Gothenborg","country":"Sweden","lat":57.662799835205,"lon":12.279800415039,"elev_ft":506,"tz":"Europe/Stockholm","source":"openflights"},"YYZ":{"icao":"CYYZ","name":"Lester B. Pearson International Airport","city":"Toronto","country":"Canada","lat":43.6772003174,"lon":-79.63059997559999,"elev_ft":569,"tz":"America/Toronto","source":"openflights"},"YVR":{"icao":"CYVR","name":"Vancouver International Airport","city":"Vancouver","country":"Canada","lat":49.193901062,"lon":-123.183998108,"elev_ft":14,"tz":"America/Vancouver","source":"openflights"},"YUL":{"icao":"CYUL","name":"Montreal / Pierre Elliott Trudeau International Airport","city":"Montreal","country":"Canada","lat":45.4706001282,"lon":-73.7407989502,"elev_ft":118,"tz":"America/Toronto","source":"openflights"},"YYC":{"icao":"CYYC","name":"Calgary International Airport","city":"Calgary","country":"Canada","lat":51.113899231,"lon":-114.019996643,"elev_ft":3557,"tz":"America/Edmonton","source":"openflights"},"YEG":{"icao":"CYEG","name":"Edmonton International Airport","city":"Edmonton","country":"Canada","lat":53.309700012200004,"lon":-113.580001831,"elev_ft":2373,"tz":"America/Edmonton","source":"openflights"},"YOW":{"icao":"CYOW","name":"Ottawa Macdonald-Cartier International Airport","city":"Ottawa","country":"Canada","lat":45.3224983215332,"lon":-75.66919708251953,"elev_ft":374,"tz":"America/Toronto","source":"openflights"},"YWG":{"icao":"CYWG","name":"Winnipeg / James Armstrong Richardson International Airport","city":"Winnipeg","country":"Canada","lat":49.909999847399995,"lon":-97.2398986816,"elev_ft":783,"tz":"America/Winnipeg","source":"openflights"},"YHZ":{"icao":"CYHZ","name":"Halifax / Stanfield International Airport","city":"Halifax","country":"Canada","lat":44.8807983398,"lon":-63.5085983276,"elev_ft":477,"tz":"America/Halifax","source":"openflights"}}}
