{"generatedAt":"2026-06-25T03:50:24.806Z","seed":false,"source":"OpenFlights airports.dat (github.com/jpatokal/openflights)","note":"Authoritative airport reference, filtered to the Glidepath set. Browser reads this file same-origin.","count":22,"airports":{"YHM":{"icao":"CYHM","name":"John C. Munro Hamilton International Airport","city":"Hamilton","country":"Canada","cc":"CAN","lat":43.173599243199995,"lon":-79.93499755859999,"elev_ft":780,"tz":"America/Toronto","region":"North America","source":"openflights"},"YHZ":{"icao":"CYHZ","name":"Halifax / Stanfield International Airport","city":"Halifax","country":"Canada","cc":"CAN","lat":44.8807983398,"lon":-63.5085983276,"elev_ft":477,"tz":"America/Halifax","region":"North America","source":"openflights"},"YKF":{"icao":"CYKF","name":"Waterloo Airport","city":"Waterloo","country":"Canada","cc":"CAN","lat":43.460800170899994,"lon":-80.3786010742,"elev_ft":1055,"tz":"America/Toronto","region":"North America","source":"openflights"},"YOW":{"icao":"CYOW","name":"Ottawa Macdonald-Cartier International Airport","city":"Ottawa","country":"Canada","cc":"CAN","lat":45.3224983215332,"lon":-75.66919708251953,"elev_ft":374,"tz":"America/Toronto","region":"North America","source":"openflights"},"YQB":{"icao":"CYQB","name":"Quebec Jean Lesage International Airport","city":"Quebec","country":"Canada","cc":"CAN","lat":46.7911,"lon":-71.393303,"elev_ft":244,"tz":"America/Toronto","region":"North America","source":"openflights"},"YTZ":{"icao":"CYTZ","name":"Billy Bishop Toronto City Centre Airport","city":"Toronto","country":"Canada","cc":"CAN","lat":43.627499,"lon":-79.396202,"elev_ft":252,"tz":"America/Toronto","region":"North America","source":"openflights"},"YYZ":{"icao":"CYYZ","name":"Lester B. Pearson International Airport","city":"Toronto","country":"Canada","cc":"CAN","lat":43.6772003174,"lon":-79.63059997559999,"elev_ft":569,"tz":"America/Toronto","region":"North America","source":"openflights"},"NQY":{"icao":"EGHQ","name":"Newquay Cornwall Airport","city":"Newquai","country":"United Kingdom","cc":"GBR","lat":50.44060134887695,"lon":-4.995409965515137,"elev_ft":390,"tz":"Europe/London","region":"Europe","source":"openflights"},"INV":{"icao":"EGPE","name":"Inverness Airport","city":"Inverness","country":"United Kingdom","cc":"GBR","lat":57.54249954223633,"lon":-4.047500133514404,"elev_ft":31,"tz":"Europe/London","region":"Europe","source":"openflights"},"EXT":{"icao":"EGTE","name":"Exeter International Airport","city":"Exeter","country":"United Kingdom","cc":"GBR","lat":50.73440170288086,"lon":-3.4138898849487305,"elev_ft":102,"tz":"Europe/London","region":"Europe","source":"openflights"},"RTM":{"icao":"EHRD","name":"Rotterdam The Hague Airport","city":"Rotterdam","country":"Netherlands","cc":"NLD","lat":51.956902,"lon":4.43722,"elev_ft":-15,"tz":"Europe/Amsterdam","region":"Europe","source":"openflights"},"AAR":{"icao":"EKAH","name":"Aarhus Airport","city":"Aarhus","country":"Denmark","cc":"DNK","lat":56.2999992371,"lon":10.619000434899998,"elev_ft":82,"tz":"Europe/Copenhagen","region":"Europe","source":"openflights"},"WRO":{"icao":"EPWR","name":"Copernicus Wrocław Airport","city":"Wroclaw","country":"Poland","cc":"POL","lat":51.1026992798,"lon":16.885799408,"elev_ft":404,"tz":"Europe/Warsaw","region":"Europe","source":"openflights"},"NAP":{"icao":"LIRN","name":"Naples International Airport","city":"Naples","country":"Italy","cc":"ITA","lat":40.886002,"lon":14.2908,"elev_ft":294,"tz":"Europe/Rome","region":"Europe","source":"openflights"},"GRZ":{"icao":"LOWG","name":"Graz Airport","city":"Graz","country":"Austria","cc":"AUT","lat":46.9911003112793,"lon":15.439599990844727,"elev_ft":1115,"tz":"Europe/Vienna","region":"Europe","source":"openflights"},"SZG":{"icao":"LOWS","name":"Salzburg Airport","city":"Salzburg","country":"Austria","cc":"AUT","lat":47.793300628699996,"lon":13.0043001175,"elev_ft":1411,"tz":"Europe/Vienna","region":"Europe","source":"openflights"},"BUR":{"icao":"KBUR","name":"Bob Hope Airport","city":"Burbank","country":"United States","cc":"USA","lat":34.20069885253906,"lon":-118.35900115966797,"elev_ft":778,"tz":"America/Los_Angeles","region":"North America","source":"openflights"},"PSP":{"icao":"KPSP","name":"Palm Springs International Airport","city":"Palm Springs","country":"United States","cc":"USA","lat":33.8297004699707,"lon":-116.50700378417969,"elev_ft":477,"tz":"America/Los_Angeles","region":"North America","source":"openflights"},"FMM":{"icao":"EDJA","name":"Memmingen Allgau Airport","city":"Memmingen","country":"Germany","cc":"DEU","lat":47.988800048799995,"lon":10.2395000458,"elev_ft":2077,"tz":"Europe/Berlin","region":"Europe","source":"openflights"},"BZN":{"icao":"KBZN","name":"Gallatin Field","city":"Bozeman","country":"United States","cc":"USA","lat":45.77750015,"lon":-111.1529999,"elev_ft":4473,"tz":"America/Denver","region":"North America","source":"openflights"},"KLU":{"icao":"LOWK","name":"Klagenfurt Airport","city":"Klagenfurt","country":"Austria","cc":"AUT","lat":46.642502,"lon":14.3377,"elev_ft":1472,"tz":"Europe/Vienna","region":"Europe","source":"openflights"},"PVU":{"icao":"KPVU","name":"Provo Municipal Airport","city":"Provo","country":"United States","cc":"USA","lat":40.219200134277,"lon":-111.72299957275,"elev_ft":4497,"tz":"America/Denver","region":"North America","source":"openflights"}}}
